source_airport,destination_airport,lat_src,lon_src,lat_dst,lon_dst
JFK,LAX,40.6413,-74.0060,33.9425,-118.4081
JFK,ORD,40.6413,-74.0060,41.8819,-87.6278
ORD,LAX,41.8819,-87.6278,33.9425,-118.4081
LAX,SFO,33.9425,-118.4081,37.6213,-122.3790
SFO,JFK,37.6213,-122.3790,40.6413,-74.0060
ATL,MIA,33.6407,-84.4277,25.7907,-80.2870
ATL,JFK,33.6407,-84.4277,40.6413,-74.0060
MIA,LAX,25.7907,-80.2870,33.9425,-118.4081
DEN,SFO,39.8561,-104.6737,37.6213,-122.3790
DEN,LAX,39.8561,-104.6737,33.9425,-118.4081
